{"version": 0.6, "generator": "Overpass API 0.7.62.8 e802775f", "osm3s": {"timestamp_osm_base": "2025-12-20T09:20:17Z", "copyright": "The data included in this document is from www.openstreetmap.org. The data is made available under ODbL."}, "elements": [{"type": "node", "id": 1386076672, "lat": 36.374712, "lon": 10.5406695, "tags": {"amenity": "pharmacy", "name": "Nour et Yasmine"}}, {"type": "node", "id": 1386076677, "lat": 36.3794227, "lon": 10.5383078, "tags": {"amenity": "pharmacy"}}, {"type": "node", "id": 1437614744, "lat": 36.3651276, "lon": 10.5349836}, {"type": "node", "id": 1437614745, "lat": 36.3653297, "lon": 10.5351305}, {"type": "node", "id": 1437614746, "lat": 36.3656825, "lon": 10.5338063}, {"type": "node", "id": 1437614747, "lat": 36.3658846, "lon": 10.5339532}, {"type": "node", "id": 1443365146, "lat": 36.1349923, "lon": 10.3803828, "tags": {"addr:city": "\u0627\u0644\u0646\u0641\u064a\u0636\u0629", "amenity": "pharmacy", "healthcare": "pharmacy", "name": "\u0635\u064a\u062f\u0644\u064a\u0629 \u0633\u0644\u0627\u0645\u064a", "name:ar": "\u0635\u064a\u062f\u0644\u064a\u0629 \u0633\u0644\u0627\u0645\u064a", "name:fr": "Pharmacie Sellami", "operator": "\u0633\u0644\u0627\u0645\u064a"}}, {"type": "node", "id": 1718631127, "lat": 36.3657068, "lon": 10.5343305}, {"type": "node", "id": 2768622083, "lat": 36.0297818, "lon": 10.5076457}, {"type": "node", "id": 2768622085, "lat": 36.029663, "lon": 10.507729}, {"type": "node", "id": 2768622087, "lat": 36.0295938, "lon": 10.507578}, {"type": "node", "id": 2768622090, "lat": 36.0297126, "lon": 10.5074947}, {"type": "node", "id": 2768622419, "lat": 36.0301272, "lon": 10.5078636}, {"type": "node", "id": 2768622420, "lat": 36.0300724, "lon": 10.5079191}, {"type": "node", "id": 2768622421, "lat": 36.0300325, "lon": 10.507842}, {"type": "node", "id": 2768622422, "lat": 36.0300948, "lon": 10.5077897}, {"type": "node", "id": 2768622764, "lat": 36.0296367, "lon": 10.5084166}, {"type": "node", "id": 2768622765, "lat": 36.0296574, "lon": 10.5084774}, {"type": "node", "id": 2768622766, "lat": 36.029563, "lon": 10.5085661}, {"type": "node", "id": 2768622767, "lat": 36.0295385, "lon": 10.5084984}, {"type": "node", "id": 2779822370, "lat": 36.0287669, "lon": 10.4988017}, {"type": "node", "id": 2779822371, "lat": 36.0287941, "lon": 10.4989514}, {"type": "node", "id": 2779822372, "lat": 36.0285461, "lon": 10.4990037}, {"type": "node", "id": 2779822373, "lat": 36.0285218, "lon": 10.4988691}, {"type": "node", "id": 2955478552, "lat": 36.4143504, "lon": 10.6515388}, {"type": "node", "id": 2955478555, "lat": 36.4144879, "lon": 10.6517681}, {"type": "node", "id": 2955478556, "lat": 36.4144938, "lon": 10.651406}, {"type": "node", "id": 2955478557, "lat": 36.4146631, "lon": 10.6520603}, {"type": "node", "id": 2955478558, "lat": 36.4148065, "lon": 10.6519275}, {"type": "node", "id": 2990548020, "lat": 36.3956863, "lon": 10.613588, "tags": {"shop": "supermarket"}}, {"type": "node", "id": 3715252977, "lat": 36.4022809, "lon": 10.6254336, "tags": {"addr:city": "Hammamet", "addr:postcode": "8050", "addr:street": "\u0634\u0627\u0631\u0639 \u0627\u0644\u062a\u062d\u0631\u064a\u0631", "name": "\u0627\u0644\u0623\u0646\u0648\u0627\u0631", "name:ar": "\u0627\u0644\u0623\u0646\u0648\u0627\u0631", "name:fr": "Al Anwar", "shop": "supermarket"}}, {"type": "node", "id": 3715266182, "lat": 36.4024101, "lon": 10.6257186, "tags": {"addr:city": "Hammamet", "addr:postcode": "8050", "addr:street": "Avenue de la Lib\u00e9ration", "name": "Fashion Shoes", "shop": "clothes"}}, {"type": "node", "id": 3715328045, "lat": 36.4020695, "lon": 10.6248828, "tags": {"addr:city": "Hammamet", "addr:postcode": "8050", "addr:street": "\u0634\u0627\u0631\u0639 \u0627\u0644\u062a\u062d\u0631\u064a\u0631", "name": "Epicerie Ali Haouel", "operator": "Ali Haouel", "shop": "convenience"}}, {"type": "node", "id": 3772966831, "lat": 36.4176701, "lon": 10.6566079, "tags": {"amenity": "pharmacy", "name": "Pharmacie Derbel"}}, {"type": "node", "id": 3780939389, "lat": 36.4018364, "lon": 10.624162, "tags": {"addr:city": "Hammamet", "amenity": "pharmacy", "name": "Pharmacie Hthemi Hdidane Akacha"}}, {"type": "node", "id": 3780939390, "lat": 36.4020287, "lon": 10.6237148, "tags": {"addr:city": "Hammamet", "name": "\u0639\u0632\u064a\u0632\u0629", "name:ar": "\u0639\u0632\u064a\u0632\u0629", "name:fr": "Aziza", "shop": "supermarket"}}, {"type": "node", "id": 3780942957, "lat": 36.4021613, "lon": 10.6241843, "tags": {"addr:city": "Hammamet", "name": "ZEN", "shop": "clothes"}}, {"type": "node", "id": 3781135282, "lat": 36.4070297, "lon": 10.6103478, "tags": {"amenity": "pharmacy", "name": "Pharmacie Mokhtar Salah"}}, {"type": "node", "id": 3781135367, "lat": 36.4073427, "lon": 10.6103398, "tags": {"amenity": "pharmacy", "name": "\u0635\u064a\u062f\u0644\u064a\u0629 \u0627\u0644\u0644\u064a\u0644", "name:ar": "\u0635\u064a\u062f\u0644\u064a\u0629 \u0627\u0644\u0644\u064a\u0644", "name:fr": "Pharmacie de nuit"}}, {"type": "node", "id": 3781135368, "lat": 36.4051967, "lon": 10.6294764, "tags": {"amenity": "pharmacy", "name": "Pharmacie Hedi Ayed"}}, {"type": "node", "id": 3824282283, "lat": 36.3996615, "lon": 10.6148667, "tags": {"name": "Mercerie et fournitures de costumes traditionnels espace Nadia", "shop": "clothes", "user_defined_other": "mercerie"}}, {"type": "node", "id": 3826917324, "lat": 36.4085836, "lon": 10.6100182, "tags": {"amenity": "pharmacy", "name": "Pharmacie Nouha El Korbi EP Saihi"}}, {"type": "node", "id": 4327173695, "lat": 36.4031623, "lon": 10.6272561, "tags": {"addr:street": "\u0634\u0627\u0631\u0639 \u0627\u0644\u062a\u062d\u0631\u064a\u0631", "amenity": "pharmacy", "name": "Pharmacie El Fekih"}}, {"type": "node", "id": 4344240490, "lat": 36.4070682, "lon": 10.6244392, "tags": {"amenity": "pharmacy", "name": "Pharmacie Ben Zahra Rimeh Ep Karoui"}}, {"type": "node", "id": 4394144389, "lat": 36.0305797, "lon": 10.5097329, "tags": {"amenity": "cafe", "name": "Echorfa", "name:ar": "\u0627\u0644\u0634\u0631\u0641\u0627\u0621", "name:fr": "echorfa"}}, {"type": "node", "id": 4396201242, "lat": 36.3938387, "lon": 10.6179347}, {"type": "node", "id": 4396201243, "lat": 36.3936595, "lon": 10.617822}, {"type": "node", "id": 4396201244, "lat": 36.3936703, "lon": 10.6179615}, {"type": "node", "id": 4396201245, "lat": 36.3936271, "lon": 10.6178489}, {"type": "node", "id": 4396201246, "lat": 36.3937005, "lon": 10.6180071}, {"type": "node", "id": 4396201247, "lat": 36.3937437, "lon": 10.6180071}, {"type": "node", "id": 4396396069, "lat": 36.4051473, "lon": 10.6312554, "tags": {"addr:city": "Hammamet", "addr:postcode": "8050", "addr:street": "\u0634\u0627\u0631\u0639 \u0627\u0628\u0648 \u0638\u0628\u064a", "name": "\u0627\u0646\u0648\u0631 \u0645\u0627\u0631\u0643\u062a", "name:ar": "\u0627\u0646\u0648\u0631 \u0645\u0627\u0631\u0643\u062a", "name:en": "Anouar Market", "name:fr": "Anouar Market", "shop": "supermarket"}}, {"type": "node", "id": 4439252346, "lat": 36.3945201, "lon": 10.6118675, "tags": {"addr:city": "\u0627\u0644\u062d\u0645\u0627\u0645\u0627\u062a", "amenity": "cafe", "cuisine": "cafe", "internet_access": "wlan", "name": "\u0645\u0642\u0647\u0649 \u0633\u064a\u062f\u064a \u0628\u0648\u062d\u062f\u064a\u062f", "name:ar": "\u0645\u0642\u0647\u0649 \u0633\u064a\u062f\u064a \u0628\u0648\u062d\u062f\u064a\u062f", "name:fr": "Caf\u00e9 Sidi Bouhdid", "opening_hours:signed": "no", "smoking": "isolated"}}, {"type": "node", "id": 4490321230, "lat": 36.3950026, "lon": 10.6202954}, {"type": "node", "id": 4490321232, "lat": 36.3948941, "lon": 10.6204209}, {"type": "node", "id": 4490321233, "lat": 36.3950696, "lon": 10.6204711}, {"type": "node", "id": 4490321234, "lat": 36.3950387, "lon": 10.6205393}, {"type": "node", "id": 4490321235, "lat": 36.3949843, "lon": 10.6205662}, {"type": "node", "id": 4490321236, "lat": 36.3952569, "lon": 10.6207284}, {"type": "node", "id": 4490321237, "lat": 36.3952125, "lon": 10.6207782}, {"type": "node", "id": 4490326528, "lat": 36.3970736, "lon": 10.6136125, "tags": {"addr:city": "\u0627\u0644\u062d\u0645\u0627\u0645\u0627\u062a", "addr:postcode": "8050", "amenity": "cafe", "cuisine": "international", "name": "\u0644\u0627 \u0631\u0627\u0645\u0628\u0644\u0627", "name:ar": "\u0644\u0627 \u0631\u0627\u0645\u0628\u0644\u0627", "name:en": "La Rambla", "website": "https://www.facebook.com/LARAMBLARESTOCAFE"}}, {"type": "node", "id": 4490328317, "lat": 36.3950937, "lon": 10.6130196, "tags": {"amenity": "cafe", "cuisine": "international", "name": "Dar Zmen", "wifi": "yes"}}, {"type": "node", "id": 4490328691, "lat": 36.3952154, "lon": 10.6132656, "tags": {"amenity": "cafe", "cuisine": "regional", "name": "Achiri", "opening_hours": "Mo-Su 06:00-23:00"}}, {"type": "node", "id": 4922201721, "lat": 36.4062301, "lon": 10.6182856, "tags": {"addr:city": "\u0627\u0644\u062d\u0645\u0627\u0645\u0627\u062a", "addr:street": "\u0634\u0627\u0631\u0639 \u0627\u0644\u0647\u0627\u062f\u064a \u0648\u0627\u0644\u064a", "amenity": "pharmacy", "name": "\u0635\u064a\u062f\u0644\u064a\u0629 \u0633\u064a\u0627\u0644\u0629", "name:ar": "\u0635\u064a\u062f\u0644\u064a\u0629 \u0633\u064a\u0627\u0644\u0629", "name:fr": "Pharmacie Siala"}}, {"type": "node", "id": 4922201722, "lat": 36.4063305, "lon": 10.6187495, "tags": {"addr:city": "\u0627\u0644\u062d\u0645\u0627\u0645\u0627\u062a", "addr:street": "\u0634\u0627\u0631\u0639 \u0627\u0644\u0647\u0627\u062f\u064a \u0648\u0627\u0644\u064a", "name": "\u0645\u063a\u0627\u0632\u0629 \u0645\u062d\u0631\u0632 \u062e\u0636\u064a\u0631\u0629 \u0645\u0644\u0627\u0628\u0633 \u062c\u0627\u0647\u0632\u0629 \u0623\u0642\u0645\u0634\u0629 \u0639\u0637\u0648\u0631\u0627\u062a \u0648 \u0623\u062d\u0630\u064a\u0629", "name:ar": "\u0645\u063a\u0627\u0632\u0629 \u0645\u062d\u0631\u0632 \u062e\u0636\u064a\u0631\u0629 \u0645\u0644\u0627\u0628\u0633 \u062c\u0627\u0647\u0632\u0629 \u0623\u0642\u0645\u0634\u0629 \u0639\u0637\u0648\u0631\u0627\u062a \u0648 \u0623\u062d\u0630\u064a\u0629", "name:fr": "Magasin Mehrez Khdhira", "phone": "+216 72 283 405", "shop": "clothes"}}, {"type": "node", "id": 5216036656, "lat": 36.4044741, "lon": 10.5599657}, {"type": "node", "id": 5216036658, "lat": 36.4044784, "lon": 10.5598143}, {"type": "node", "id": 5216036659, "lat": 36.4041936, "lon": 10.55978}, {"type": "node", "id": 5216036660, "lat": 36.4041884, "lon": 10.5599217}, {"type": "node", "id": 5613319010, "lat": 36.0285788, "lon": 10.4988534}, {"type": "node", "id": 5840025485, "lat": 36.3951132, "lon": 10.376497, "tags": {"addr:postcode": "1132", "addr:street": "Zaghoun Hammam Bent Djedidi", "amenity": "cafe", "name": "Caf\u00e9 ranime hammam Bent Djedidi Hammamet"}}, {"type": "node", "id": 6233175377, "lat": 36.3741307, "lon": 10.5411433, "tags": {"name": "Blue Ice", "shop": "supermarket"}}, {"type": "node", "id": 6256031453, "lat": 36.3944784, "lon": 10.6127143, "tags": {"amenity": "cafe", "name": "Caf\u00e9 Fort Hammamet"}}, {"type": "node", "id": 6256031454, "lat": 36.3947685, "lon": 10.6135822, "tags": {"amenity": "cafe", "name": "El Medina"}}, {"type": "node", "id": 6256534645, "lat": 36.3958949, "lon": 10.6138002, "tags": {"name": "MG City", "shop": "supermarket"}}, {"type": "node", "id": 6256534646, "lat": 36.3959351, "lon": 10.6142161, "tags": {"amenity": "cafe", "name": "Canari", "opening_hours": "Mo-Su 07:00-23:00"}}, {"type": "node", "id": 6256534647, "lat": 36.395675, "lon": 10.6139879, "tags": {"amenity": "cafe", "name": "Caf\u00e9 Le Palmier"}}, {"type": "node", "id": 6256534648, "lat": 36.396, "lon": 10.6145404, "tags": {"amenity": "cafe", "name": "Mister Ben"}}, {"type": "node", "id": 6256534660, "lat": 36.3949177, "lon": 10.6157806, "tags": {"amenity": "cafe", "name": "Black Tag"}}, {"type": "node", "id": 6256539398, "lat": 36.3983605, "lon": 10.6155983, "tags": {"amenity": "cafe", "name": "Twenty Six Coffee"}}, {"type": "node", "id": 6256539400, "lat": 36.3984256, "lon": 10.6157019, "tags": {"amenity": "cafe", "name": "Bridge Caf\u00e9"}}, {"type": "node", "id": 6256539402, "lat": 36.3984968, "lon": 10.615798, "tags": {"amenity": "pharmacy", "dispensing": "yes", "healthcare": "pharmacy", "name": "pharmacie djedidi"}}, {"type": "node", "id": 6256539410, "lat": 36.396729, "lon": 10.6143902, "tags": {"amenity": "pharmacy", "dispensing": "yes", "healthcare": "pharmacy", "name": "Pharmacie Ben debba"}}, {"type": "node", "id": 6262815049, "lat": 36.3736737, "lon": 10.5452306, "tags": {"amenity": "cafe", "name": "Le Mistral"}}, {"type": "node", "id": 6264723540, "lat": 36.4206999, "lon": 10.6679299, "tags": {"amenity": "cafe", "name": "Alia Caf\u00e9"}}, {"type": "node", "id": 6268839779, "lat": 36.4189376, "lon": 10.6650211, "tags": {"amenity": "cafe", "name": "Caf\u00e9 Net"}}, {"type": "node", "id": 6270406013, "lat": 36.3952362, "lon": 10.6202441, "tags": {"amenity": "cafe", "name": "La Roche"}}, {"type": "node", "id": 6270406018, "lat": 36.3980444, "lon": 10.6246012, "tags": {"amenity": "cafe", "name": "Salon De Th\u00e9 la Vague"}}, {"type": "node", "id": 6270406020, "lat": 36.3987697, "lon": 10.6211489, "tags": {"amenity": "cafe", "name": "Caf\u00e9 Gualleti"}}, {"type": "node", "id": 6274661493, "lat": 36.4178674, "lon": 10.6569012, "tags": {"amenity": "cafe", "name": "Caf\u00e9 Ezzitouna"}}, {"type": "node", "id": 6274661494, "lat": 36.4183049, "lon": 10.6576088, "tags": {"name": "Superette Romene", "shop": "supermarket"}}, {"type": "node", "id": 6274661523, "lat": 36.4154333, "lon": 10.6529456, "tags": {"amenity": "pharmacy", "dispensing": "yes", "healthcare": "pharmacy", "name": "Pharmacie BOUAOUINA Mohamed Aymen"}}, {"type": "node", "id": 6274661524, "lat": 36.4154424, "lon": 10.6524179, "tags": {"amenity": "cafe", "name": "Caf\u00e9 Touati"}}, {"type": "node", "id": 6274661527, "lat": 36.4147202, "lon": 10.6512877, "tags": {"amenity": "cafe", "name": "Caf\u00e9 KHARROUBA"}}, {"type": "node", "id": 6274661531, "lat": 36.4122044, "lon": 10.6481535, "tags": {"amenity": "cafe", "name": "Le Miramar"}}, {"type": "node", "id": 6274661541, "lat": 36.407489, "lon": 10.6375441, "tags": {"amenity": "pharmacy", "dispensing": "yes", "healthcare": "pharmacy", "name": "Pharmacie Slaheddine Bouslama"}}, {"type": "node", "id": 6274661558, "lat": 36.406751, "lon": 10.6356375, "tags": {"amenity": "cafe", "name": "Caf\u00e9 Olivia"}}, {"type": "node", "id": 6274661575, "lat": 36.4028844, "lon": 10.6413208, "tags": {"amenity": "cafe", "name": "Cabane Club"}}, {"type": "node", "id": 6274661625, "lat": 36.4035082, "lon": 10.6387329, "tags": {"name": "SuperMarket Marwen", "shop": "supermarket"}}, {"type": "node", "id": 6274661659, "lat": 36.402227, "lon": 10.6366894, "tags": {"amenity": "cafe", "name": "Le Canap\u00e9"}}, {"type": "node", "id": 6274661660, "lat": 36.4019568, "lon": 10.6358475, "tags": {"amenity": "cafe", "name": "Melody caf\u00e9"}}, {"type": "node", "id": 6274661708, "lat": 36.3991099, "lon": 10.6254713, "tags": {"amenity": "cafe", "name": "Caf\u00e9 Halfaouine"}}, {"type": "node", "id": 6274661709, "lat": 36.3995644, "lon": 10.6253244, "tags": {"amenity": "cafe", "name": "Caf\u00e9 Essousen"}}, {"type": "node", "id": 6274661710, "lat": 36.4005811, "lon": 10.6265614, "tags": {"amenity": "cafe", "name": "Hexagone caf\u00e9"}}, {"type": "node", "id": 6274661712, "lat": 36.3986041, "lon": 10.6241607, "tags": {"amenity": "cafe", "name": "Caf\u00e9 Yasmine"}}, {"type": "node", "id": 6274661713, "lat": 36.3984489, "lon": 10.6232699, "tags": {"amenity": "cafe", "name": "Cafe' Perle D'Azur"}}, {"type": "node", "id": 6274661716, "lat": 36.4050441, "lon": 10.6309985, "tags": {"name": "\u0627\u0644\u0627\u0646\u0648\u0627\u0631 \u0645\u0627\u0631\u0643\u062a \u0627\u0628\u0648 \u0638\u0628\u064a", "name:ar": "\u0627\u0644\u0627\u0646\u0648\u0627\u0631 \u0645\u0627\u0631\u0643\u062a \u0627\u0628\u0648 \u0638\u0628\u064a", "name:en": "Anouar Market", "name:fr": "Anouar Market", "shop": "supermarket"}}, {"type": "node", "id": 6274661717, "lat": 36.4048354, "lon": 10.6296338, "tags": {"name": "Hamadi Abid Hammamet", "shop": "clothes"}}, {"type": "node", "id": 6287074314, "lat": 36.4015513, "lon": 10.5811449, "tags": {"amenity": "cafe", "name": "L'eldorado"}}, {"type": "node", "id": 6287074327, "lat": 36.4037538, "lon": 10.5796723, "tags": {"amenity": "cafe", "name": "Salon De Th\u00e9 Queen"}}, {"type": "node", "id": 6287074328, "lat": 36.4056845, "lon": 10.5783912, "tags": {"amenity": "cafe", "name": "TIME OUT coffe shop"}}, {"type": "node", "id": 6287074329, "lat": 36.4059043, "lon": 10.5801701, "tags": {"amenity": "pharmacy", "check_date": "2024-11-12", "dispensing": "yes", "drive_through": "no", "healthcare": "pharmacy", "name": "Pharmacie Hachem Kanoun", "wheelchair": "yes"}}, {"type": "node", "id": 6287074338, "lat": 36.4055582, "lon": 10.5846511, "tags": {"name": "Panda Market", "shop": "supermarket"}}, {"type": "node", "id": 6287074339, "lat": 36.4058956, "lon": 10.5773509, "tags": {"name": "\u0627\u0646\u0648\u0631 \u0645\u0627\u0631\u0643\u062a", "name:ar": "\u0627\u0646\u0648\u0631 \u0645\u0627\u0631\u0643\u062a", "name:en": "Anouar Market", "name:fr": "Anouar Market", "shop": "supermarket"}}, {"type": "node", "id": 6287074340, "lat": 36.4047233, "lon": 10.5717904, "tags": {"amenity": "cafe", "name": "Cafe Phenicia"}}, {"type": "node", "id": 6296568507, "lat": 36.3994935, "lon": 10.6178043, "tags": {"amenity": "pharmacy", "dispensing": "yes", "healthcare": "pharmacy", "name": "\u0635\u064a\u062f\u0644\u064a\u0629 \u0627\u0644\u0644\u064a\u0644", "name:ar": "\u0635\u064a\u062f\u0644\u064a\u0629 \u0627\u0644\u0644\u064a\u0644", "name:fr": "Pharmacie de nuit"}}, {"type": "node", "id": 6296568508, "lat": 36.3996452, "lon": 10.6182477, "tags": {"amenity": "cafe", "name": "Hammamet"}}, {"type": "node", "id": 6296568509, "lat": 36.3993329, "lon": 10.6152215, "tags": {"amenity": "cafe", "name": "Cafeteria CA"}}, {"type": "node", "id": 6296568514, "lat": 36.400006, "lon": 10.6148096, "tags": {"name": "Mercerie Nadia Gueddana", "shop": "clothes"}}, {"type": "node", "id": 6297472049, "lat": 36.3974006, "lon": 10.6126638, "tags": {"name": "Confiture D'Amour", "shop": "supermarket"}}, {"type": "node", "id": 6297472050, "lat": 36.3977316, "lon": 10.6125724, "tags": {"name": "Magasin Salah Kaabar", "shop": "supermarket"}}, {"type": "node", "id": 6297472060, "lat": 36.399628, "lon": 10.6122526, "tags": {"amenity": "pharmacy", "dispensing": "yes", "healthcare": "pharmacy", "name": "Pharmacie Koubakji Nabiha"}}, {"type": "node", "id": 6297472068, "lat": 36.4004135, "lon": 10.6085852, "tags": {"amenity": "cafe", "name": "Caf\u00e9 Moussa"}}, {"type": "node", "id": 6297475988, "lat": 36.4054196, "lon": 10.6028747, "tags": {"amenity": "cafe", "name": "Cafe Bouascar"}}, {"type": "node", "id": 6297475989, "lat": 36.4059972, "lon": 10.6028833, "tags": {"amenity": "cafe", "name": "Caf\u00e9 Billard Frizooo"}}, {"type": "node", "id": 6297475991, "lat": 36.405507, "lon": 10.598931, "tags": {"amenity": "cafe", "name": "Pause Cafe My Coffe"}}, {"type": "node", "id": 6297475993, "lat": 36.4057423, "lon": 10.5923895, "tags": {"amenity": "cafe", "name": "Churros By Zicos"}}, {"type": "node", "id": 6297475997, "lat": 36.4060832, "lon": 10.6124157, "tags": {"amenity": "pharmacy", "dispensing": "yes", "healthcare": "pharmacy", "name": "Pharmacie Bechir Mohsen"}}, {"type": "node", "id": 6297476002, "lat": 36.4037709, "lon": 10.6112214, "tags": {"amenity": "pharmacy", "dispensing": "yes", "healthcare": "pharmacy", "name": "Pharmacie Ahmed Ammar"}}, {"type": "node", "id": 6297777062, "lat": 36.4054802, "lon": 10.6286164, "tags": {"amenity": "cafe", "name": "Caf\u00e9 Elhana"}}, {"type": "node", "id": 6297777064, "lat": 36.4044741, "lon": 10.6289835, "tags": {"amenity": "cafe", "name": "Caf\u00e9 Prestige"}}, {"type": "node", "id": 6297777065, "lat": 36.4042154, "lon": 10.6284773, "tags": {"amenity": "cafe", "name": "Woods coffee"}}, {"type": "node", "id": 6297777066, "lat": 36.4034481, "lon": 10.6276385, "tags": {"amenity": "pharmacy", "dispensing": "yes", "healthcare": "pharmacy", "name": "Pharmacie Drira"}}, {"type": "node", "id": 6306915472, "lat": 36.3734822, "lon": 10.5415947, "tags": {"name": "Superette Nadine", "shop": "supermarket"}}, {"type": "node", "id": 6306915478, "lat": 36.3740208, "lon": 10.5439468, "tags": {"amenity": "cafe", "name": "Caf\u00e9 Maure YASMINA"}}, {"type": "node", "id": 6306915482, "lat": 36.374946, "lon": 10.5446937, "tags": {"amenity": "cafe", "name": "Caf\u00e9 la paillote"}}, {"type": "node", "id": 6306915484, "lat": 36.3733282, "lon": 10.5439885, "tags": {"amenity": "cafe", "name": "Canari Tutti Frutti"}}, {"type": "node", "id": 6306915890, "lat": 36.3738657, "lon": 10.5409315, "tags": {"name": "Magasin Bravo Yesmine Hammamet", "shop": "supermarket"}}, {"type": "node", "id": 6306915893, "lat": 36.3676739, "lon": 10.5347829, "tags": {"amenity": "cafe", "name": "Caf\u00e9 Safsaf"}}, {"type": "node", "id": 6306915898, "lat": 36.3680598, "lon": 10.5342066, "tags": {"amenity": "cafe", "name": "Ksar El Medina"}}, {"type": "node", "id": 6306915899, "lat": 36.3678612, "lon": 10.5338539, "tags": {"amenity": "cafe", "name": "Caf\u00e9 Om Kolthoum"}}, {"type": "node", "id": 6312464550, "lat": 36.3766081, "lon": 10.5393224, "tags": {"name": "Les Jasmins", "shop": "supermarket"}}, {"type": "node", "id": 6312464566, "lat": 36.3780532, "lon": 10.5386186, "tags": {"amenity": "cafe", "name": "Vancouver Coffee Shop"}}, {"type": "node", "id": 6322935080, "lat": 36.3627521, "lon": 10.532348, "tags": {"amenity": "cafe", "name": "Marrakech Coffee House"}}, {"type": "node", "id": 6322935081, "lat": 36.3633967, "lon": 10.5324129, "tags": {"amenity": "pharmacy", "dispensing": "yes", "healthcare": "pharmacy", "name": "\u0635\u064a\u062f\u0644\u064a\u0629 \u0627\u0644\u0644\u064a\u0644", "name:en": "Pharmacie de Nuit", "name:fr": "Pharmacie de Nuit"}}, {"type": "node", "id": 6323176153, "lat": 36.4027859, "lon": 10.5679455, "tags": {"amenity": "cafe", "name": "Kleines Cafe"}}, {"type": "node", "id": 6323176155, "lat": 36.401972, "lon": 10.5666195, "tags": {"name": "Miranda", "shop": "supermarket"}}, {"type": "node", "id": 6323176156, "lat": 36.4059914, "lon": 10.5685974, "tags": {"amenity": "cafe", "name": "Caf\u00e9 Ciambo"}}, {"type": "node", "id": 6323176163, "lat": 36.4067579, "lon": 10.5611401, "tags": {"amenity": "pharmacy", "dispensing": "yes", "healthcare": "pharmacy", "name": "Pharmacie Na\u00e2ss"}}, {"type": "node", "id": 6323176164, "lat": 36.4050121, "lon": 10.5616287, "tags": {"amenity": "pharmacy", "dispensing": "yes", "healthcare": "pharmacy", "name": "Pharmacie Selima Souissi"}}, {"type": "node", "id": 6327196198, "lat": 36.3960807, "lon": 10.6135887, "tags": {"amenity": "cafe", "name": "Sidi Mnasser"}}, {"type": "node", "id": 6329687588, "lat": 36.4056069, "lon": 10.6148137, "tags": {"name": "Boucherie Sahli", "shop": "supermarket"}}, {"type": "node", "id": 6329687589, "lat": 36.4089368, "lon": 10.6168779, "tags": {"name": "\u00c9picerie Abdesslam Souissi", "shop": "supermarket"}}, {"type": "node", "id": 6329687598, "lat": 36.4083539, "lon": 10.6325979, "tags": {"amenity": "cafe", "name": "Caf\u00e9 Vert"}}, {"type": "node", "id": 6329687607, "lat": 36.4002429, "lon": 10.6196947, "tags": {"amenity": "cafe", "name": "Valda"}}, {"type": "node", "id": 6329687614, "lat": 36.4019693, "lon": 10.6211906, "tags": {"addr:street": "\u0634\u0627\u0631\u0639 \u0627\u0644\u062a\u062d\u0631\u064a\u0631", "amenity": "pharmacy", "dispensing": "yes", "healthcare": "pharmacy", "name": "Pharmacie Raies"}}, {"type": "node", "id": 6329687616, "lat": 36.4022171, "lon": 10.6191428, "tags": {"name": "Magasin Ali Zguir", "shop": "supermarket"}}, {"type": "node", "id": 6329687618, "lat": 36.3999806, "lon": 10.6196576, "tags": {"amenity": "cafe", "name": "Caf\u00e9 Messsaoud", "opening_hours": "Mo-Su 06:30-23:30"}}, {"type": "node", "id": 6329687620, "lat": 36.4001453, "lon": 10.6183063, "tags": {"amenity": "cafe", "name": "Caf\u00e9 Maure SIDI EL KILANI"}}, {"type": "node", "id": 6329687632, "lat": 36.3950536, "lon": 10.6143607, "tags": {"amenity": "cafe", "name": "Caf\u00e9 Sidi Achour"}}, {"type": "node", "id": 6336537563, "lat": 36.4061264, "lon": 10.6176693, "tags": {"amenity": "cafe", "name": "Caf\u00e9 Paolo"}}, {"type": "node", "id": 6336537566, "lat": 36.4060973, "lon": 10.6206859, "tags": {"name": "Sup\u00e9rette Alrhama", "shop": "supermarket"}}, {"type": "node", "id": 6336537567, "lat": 36.4041258, "lon": 10.621154, "tags": {"amenity": "cafe", "name": "Caf\u00e9 Boudhina Hammamet"}}, {"type": "node", "id": 6336537569, "lat": 36.4037352, "lon": 10.620948, "tags": {"amenity": "cafe", "name": "Caf\u00e9 Jihed"}}, {"type": "node", "id": 6336537572, "lat": 36.4022352, "lon": 10.6227155, "tags": {"name": "La Firma Gros", "shop": "supermarket"}}, {"type": "node", "id": 6336537573, "lat": 36.4025076, "lon": 10.6250038, "tags": {"amenity": "cafe", "name": "Espace Les Romains"}}, {"type": "node", "id": 6336537574, "lat": 36.4024285, "lon": 10.6247636, "tags": {"amenity": "pharmacy", "dispensing": "yes", "healthcare": "pharmacy", "name": "TOPARAPHARM"}}, {"type": "node", "id": 6336537575, "lat": 36.4019371, "lon": 10.6256674, "tags": {"amenity": "cafe", "name": "Bita Coffee"}}, {"type": "node", "id": 6336537577, "lat": 36.4037015, "lon": 10.6274604, "tags": {"amenity": "cafe", "name": "Street Coffee"}}, {"type": "node", "id": 6336537581, "lat": 36.4027554, "lon": 10.6264628, "tags": {"name": "Pescheria Dy Golfe", "shop": "supermarket"}}, {"type": "node", "id": 6336540300, "lat": 36.3990778, "lon": 10.6123535, "tags": {"amenity": "cafe", "name": "Caf\u00e9 Bleu"}}, {"type": "node", "id": 6336540304, "lat": 36.4005291, "lon": 10.6120943, "tags": {"name": "Fenina", "shop": "supermarket"}}, {"type": "node", "id": 6336540310, "lat": 36.4009759, "lon": 10.6116451, "tags": {"amenity": "pharmacy", "dispensing": "yes", "healthcare": "pharmacy", "name": "Pharmacie Mami Koubakji"}}, {"type": "node", "id": 6336540311, "lat": 36.401423, "lon": 10.6119286, "tags": {"name": "Xesse", "shop": "clothes"}}, {"type": "node", "id": 6336540312, "lat": 36.4016186, "lon": 10.6118997, "tags": {"name": "Supermarket", "shop": "supermarket"}}, {"type": "node", "id": 6336540314, "lat": 36.4027806, "lon": 10.6117967, "tags": {"amenity": "cafe", "name": "Caf\u00e9 Susana"}}, {"type": "node", "id": 6336540321, "lat": 36.4034345, "lon": 10.6112989, "tags": {"name": "Sup\u00e9rette Fatima", "shop": "supermarket"}}, {"type": "node", "id": 6336540326, "lat": 36.4053489, "lon": 10.6129843, "tags": {"amenity": "cafe", "name": "El MECHMOUM"}}, {"type": "node", "id": 6336540327, "lat": 36.4058028, "lon": 10.6129373, "tags": {"amenity": "cafe", "name": "El Haloui"}}, {"type": "node", "id": 6337932789, "lat": 36.4070161, "lon": 10.6108974, "tags": {"amenity": "cafe", "name": "Bohemian Caf\u00e9"}}, {"type": "node", "id": 6337932796, "lat": 36.406768, "lon": 10.6101539, "tags": {"amenity": "cafe", "name": "Omi Douja"}}, {"type": "node", "id": 6337932797, "lat": 36.4067695, "lon": 10.6073136, "tags": {"amenity": "cafe", "name": "Blackwood"}}, {"type": "node", "id": 6337932798, "lat": 36.4066827, "lon": 10.6083701, "tags": {"name": "Epicerie Royale", "shop": "supermarket"}}, {"type": "node", "id": 6337932802, "lat": 36.4043304, "lon": 10.6120505, "tags": {"amenity": "cafe", "name": "Caf\u00e9 Derby"}}, {"type": "node", "id": 6337932835, "lat": 36.4007526, "lon": 10.5593647, "tags": {"amenity": "cafe", "name": "Bab Al Madina"}}, {"type": "node", "id": 6342144678, "lat": 36.387739, "lon": 10.5456497, "tags": {"amenity": "cafe", "name": "Caf\u00e9 de l'OM Hammamet Sud"}}, {"type": "node", "id": 6342144679, "lat": 36.3868535, "lon": 10.5447426, "tags": {"amenity": "cafe", "name": "Caf\u00e9 Echarg"}}, {"type": "node", "id": 6356477170, "lat": 36.1370876, "lon": 10.3834808, "tags": {"addr:city": "\u0627\u0644\u0646\u0641\u064a\u0636\u0629", "amenity": "cafe", "name": "\u0645\u0642\u0647\u0649 \u062f\u0645\u0634\u0642", "name:ar": "\u0645\u0642\u0647\u0649 \u062f\u0645\u0634\u0642", "name:fr": "Caf\u00e9 Damas"}}, {"type": "node", "id": 6356477171, "lat": 36.1365634, "lon": 10.3827969, "tags": {"addr:city": "\u0627\u0644\u0646\u0641\u064a\u0636\u0629", "amenity": "pharmacy", "dispensing": "yes", "healthcare": "pharmacy", "name": "\u0635\u064a\u062f\u0644\u064a\u0629 \u0639\u0645\u0627\u062f \u064a\u0648\u0633\u0641", "name:ar": "\u0635\u064a\u062f\u0644\u064a\u0629 \u0639\u0645\u0627\u062f \u064a\u0648\u0633\u0641", "name:fr": "Pharmacie Imed Youssef", "operator": "\u0639\u0645\u0627\u062f \u064a\u0648\u0633\u0641"}}, {"type": "node", "id": 6356477698, "lat": 36.1348862, "lon": 10.3801266, "tags": {"amenity": "cafe", "name": "Caf\u00e9 Elbehi"}}, {"type": "node", "id": 6356477703, "lat": 36.1332419, "lon": 10.3764185}, {"type": "node", "id": 6356477704, "lat": 36.1331618, "lon": 10.3764686}, {"type": "node", "id": 6356477705, "lat": 36.1331852, "lon": 10.3765154}, {"type": "node", "id": 6356477706, "lat": 36.1331744, "lon": 10.3765221}, {"type": "node", "id": 6356477707, "lat": 36.133205, "lon": 10.3765846}, {"type": "node", "id": 6356477708, "lat": 36.1332239, "lon": 10.3765812}, {"type": "node", "id": 6356477709, "lat": 36.1332644, "lon": 10.3766748}, {"type": "node", "id": 6356477710, "lat": 36.1332482, "lon": 10.3766905}, {"type": "node", "id": 6356477711, "lat": 36.133277, "lon": 10.376754}, {"type": "node", "id": 6356477712, "lat": 36.1332924, "lon": 10.3767451}, {"type": "node", "id": 6356477713, "lat": 36.1333167, "lon": 10.3768008}, {"type": "node", "id": 6356477714, "lat": 36.1333923, "lon": 10.3767473}, {"type": "node", "id": 6356477715, "lat": 36.1333635, "lon": 10.3766782}, {"type": "node", "id": 6356477716, "lat": 36.133341, "lon": 10.3766905}, {"type": "node", "id": 6356477717, "lat": 36.1333302, "lon": 10.3766615}, {"type": "node", "id": 6356477718, "lat": 36.1333482, "lon": 10.3766459}, {"type": "node", "id": 6356477723, "lat": 36.1340822, "lon": 10.37501, "tags": {"addr:city": "\u0627\u0644\u0646\u0641\u064a\u0636\u0629", "amenity": "cafe", "name": "\u0645\u0642\u0647\u0649 \u0628\u0646 \u0639\u0644\u064a", "name:ar": "\u0645\u0642\u0647\u0649 \u0628\u0646 \u0639\u0644\u064a", "name:fr": "Caf\u00e9 Ben Ali"}}, {"type": "node", "id": 6356477733, "lat": 36.1347166, "lon": 10.3763836, "tags": {"addr:city": "\u0627\u0644\u0646\u0641\u064a\u0636\u0629", "amenity": "cafe", "name": "\u0645\u0642\u0647\u0649 \u0641\u0627\u0631\u0648\u0642", "name:ar": "\u0645\u0642\u0647\u0649 \u0641\u0627\u0631\u0648\u0642", "name:fr": "Caf\u00e9 Farouk"}}, {"type": "node", "id": 6356477735, "lat": 36.1349481, "lon": 10.3756223, "tags": {"amenity": "pharmacy", "dispensing": "yes", "healthcare": "pharmacy", "name": "Espace Sant\u00e9 Enfidha"}}, {"type": "node", "id": 6356477736, "lat": 36.1329941, "lon": 10.3781237, "tags": {"addr:city": "\u0627\u0644\u0646\u0641\u064a\u0636\u0629", "amenity": "cafe", "name": "\u0645\u064a\u0644\u0627\u0646\u0648", "name:ar": "\u0645\u064a\u0644\u0627\u0646\u0648", "name:it": "Milano"}}, {"type": "node", "id": 6356477737, "lat": 36.1327806, "lon": 10.377584, "tags": {"amenity": "pharmacy", "dispensing": "yes", "healthcare": "pharmacy", "name": "Pharmacie Boussetta"}}, {"type": "node", "id": 6356477738, "lat": 36.132963, "lon": 10.3790269, "tags": {"addr:city": "\u0627\u0644\u0646\u0641\u064a\u0636\u0629", "amenity": "cafe", "name": "\u0645\u0642\u0647\u0649 \u0639\u0628\u064a\u062f", "name:ar": "\u0645\u0642\u0647\u0649 \u0639\u0628\u064a\u062f"}}, {"type": "node", "id": 6356477739, "lat": 36.1338822, "lon": 10.3801427, "tags": {"amenity": "cafe", "name": "CAFE TAHAR JEGHAM"}}, {"type": "node", "id": 6383957610, "lat": 36.4054272, "lon": 10.5602456, "tags": {"amenity": "cafe", "name": "Caf\u00e9 Erriadh"}}, {"type": "node", "id": 6383957614, "lat": 36.4071512, "lon": 10.5612901, "tags": {"amenity": "cafe", "name": "Caf\u00e9 L'Horizon"}}, {"type": "node", "id": 6383957616, "lat": 36.4081909, "lon": 10.5611288, "tags": {"shop": "convenience"}}, {"type": "node", "id": 6519147044, "lat": 36.4031364, "lon": 10.6133715, "tags": {"amenity": "cafe", "name": "Caf\u00e9 Derby"}}, {"type": "node", "id": 6519147045, "lat": 36.401171, "lon": 10.6231682, "tags": {"amenity": "cafe", "name": "Caf\u00e9 Zico"}}, {"type": "node", "id": 6519147046, "lat": 36.3991672, "lon": 10.6164763, "tags": {"amenity": "cafe", "name": "Dar CA"}}, {"type": "node", "id": 6519147053, "lat": 36.3938501, "lon": 10.6130424, "tags": {"amenity": "cafe", "name": "Caf\u00e9 M\u00e9dina"}}, {"type": "node", "id": 6551282134, "lat": 36.3982723, "lon": 10.5601712, "tags": {"amenity": "cafe", "name": "Aloha Caf\u00e9"}}, {"type": "node", "id": 6551282143, "lat": 36.4011869, "lon": 10.5584562}, {"type": "node", "id": 6551282144, "lat": 36.4009581, "lon": 10.5587593}, {"type": "node", "id": 6551282145, "lat": 36.4012581, "lon": 10.5589444}, {"type": "node", "id": 6551282146, "lat": 36.4014071, "lon": 10.55866}, {"type": "node", "id": 6551282148, "lat": 36.4048249, "lon": 10.5630481, "tags": {"amenity": "cafe", "name": "El Bousten"}}, {"type": "node", "id": 6551282149, "lat": 36.4052824, "lon": 10.5635598, "tags": {"amenity": "cafe", "name": "Essalem"}}, {"type": "node", "id": 6551282150, "lat": 36.4050117, "lon": 10.5640359, "tags": {"amenity": "pharmacy", "dispensing": "yes", "healthcare": "pharmacy"}}, {"type": "node", "id": 6551282156, "lat": 36.4060105, "lon": 10.5681987, "tags": {"amenity": "cafe", "name": "El Mawel"}}, {"type": "node", "id": 6551282158, "lat": 36.4044333, "lon": 10.5710945, "tags": {"amenity": "cafe", "name": "Castella"}}, {"type": "node", "id": 6551282166, "lat": 36.4071138, "lon": 10.6021497, "tags": {"amenity": "cafe", "name": "Dream Coffee"}}, {"type": "node", "id": 6551282167, "lat": 36.4075244, "lon": 10.6022275, "tags": {"amenity": "cafe", "name": "Vintage Coffee"}}, {"type": "node", "id": 6577722587, "lat": 36.3704726, "lon": 10.5418413, "tags": {"amenity": "cafe", "name": "Shell Beach Bar", "name:ru": "\u0411\u0430\u0440 \u0438 \u043b\u0435\u0436\u0430\u043a\u0438 \u043e\u0442\u0435\u043b\u044f Shell Beach"}}, {"type": "node", "id": 6582558405, "lat": 36.3798387, "lon": 10.5386222, "tags": {"amenity": "cafe", "name": "Caf\u00e9 Ahlem"}}, {"type": "node", "id": 6743810666, "lat": 36.4037578, "lon": 10.6490445, "tags": {"amenity": "cafe", "name": "Pool Bar - La Badira"}}, {"type": "node", "id": 7388583686, "lat": 36.4050486, "lon": 10.6127514, "tags": {"clothes": "suits;men", "name": "Hmaid Guembri", "payment:cash": "yes", "shop": "clothes"}}, {"type": "node", "id": 7618649387, "lat": 36.3951956, "lon": 10.6157755, "tags": {"name": "Supermarket", "opening_hours:signed": "no", "shop": "supermarket"}}, {"type": "node", "id": 7618688376, "lat": 36.3956459, "lon": 10.6146348, "tags": {"name": "La Rose des Sables", "shop": "clothes"}}, {"type": "node", "id": 7623001252, "lat": 36.3951031, "lon": 10.6204334}, {"type": "node", "id": 7781251287, "lat": 36.3953353, "lon": 10.6143088, "tags": {"addr:city": "\u0627\u0644\u062d\u0645\u0627\u0645\u0627\u062a", "addr:postcode": "8050", "addr:street": "\u0646\u0647\u062c \u0627\u0644\u064a\u0627\u0633\u0645\u064a\u0646", "amenity": "cafe", "internet_access": "yes", "internet_access:fee": "no", "internet_access:ssid": "SIDIACHOUR", "name": "Caf\u00e9 Sidi Achour", "opening_hours:signed": "no", "outdoor_seating": "yes"}}, {"type": "node", "id": 7781550010, "lat": 36.3955777, "lon": 10.6171717, "tags": {"name": "\u0639\u0637\u0627\u0631", "name:ar": "\u0639\u0637\u0627\u0631", "name:en": "Attar", "name:fr": "Attar", "shop": "supermarket"}}, {"type": "node", "id": 7781552416, "lat": 36.3969117, "lon": 10.6175762, "tags": {"name": "\u0639\u0637\u0627\u0631", "name:ar": "\u0639\u0637\u0627\u0631", "name:en": "Attar", "name:fr": "Attar", "shop": "supermarket"}}, {"type": "node", "id": 7787975724, "lat": 36.3957465, "lon": 10.6145188, "tags": {"addr:city": "\u0627\u0644\u062d\u0645\u0627\u0645\u0627\u062a", "addr:postcode": "8050", "addr:street": "\u0634\u0627\u0631\u0639 \u0639\u0644\u064a \u0627\u0644\u0628\u0644\u0647\u0648\u0627\u0646", "amenity": "cafe", "name": "Caf\u00e9teria", "opening_hours:signed": "no", "outdoor_seating": "no"}}, {"type": "node", "id": 7788276447, "lat": 36.4058222, "lon": 10.6033118, "tags": {"amenity": "cafe"}}, {"type": "node", "id": 7788286963, "lat": 36.4054772, "lon": 10.6033397, "tags": {"name": "Superette Khaled", "shop": "supermarket"}}, {"type": "node", "id": 7788317672, "lat": 36.4058141, "lon": 10.6037289, "tags": {"amenity": "cafe", "name": "Big Ben Caf\u00e9"}}, {"type": "node", "id": 8213732131, "lat": 36.1374426, "lon": 10.2995712, "tags": {"amenity": "cafe", "name": "Caf\u00e9 Belgacem"}}, {"type": "node", "id": 8922379602, "lat": 36.4155839, "lon": 10.6526181, "tags": {"amenity": "cafe", "name": "Caf\u00e9 Caramel", "outdoor_seating": "yes"}}, {"type": "node", "id": 9976409096, "lat": 36.3970725, "lon": 10.6233843, "tags": {"name": "\u0627\u0646\u0648\u0631 \u0645\u0627\u0631\u0643\u062a", "name:ar": "\u0627\u0646\u0648\u0631 \u0645\u0627\u0631\u0643\u062a", "name:en": "Anouar Market", "name:fr": "Anouar Market", "shop": "supermarket"}}, {"type": "node", "id": 12328783801, "lat": 36.40505, "lon": 10.5631917, "tags": {"amenity": "cafe", "cuisine": "coffee_shop", "name": "Cafe Bondin"}}, {"type": "way", "id": 130568384, "nodes": [1437614746, 1437614747, 1718631127, 1437614745, 1437614744, 1437614746], "tags": {"name": "Joy`s", "opening_hours": "Tu-Su 08:00-20:00;Sa 08:00-12:00", "shop": "clothes"}}, {"type": "way", "id": 271943696, "nodes": [2768622083, 2768622085, 2768622087, 2768622090, 2768622083], "tags": {"addr:city": "\u0647\u0631\u0642\u0644\u0629", "addr:postcode": "4012", "amenity": "cafe", "building": "yes", "name": "\u0642\u0647\u0648\u0629 \u0639\u0628\u064a\u0634", "name:ar": "\u0642\u0647\u0648\u0629 \u0639\u0628\u064a\u0634"}}, {"type": "way", "id": 271943707, "nodes": [2768622419, 2768622420, 2768622421, 2768622422, 2768622419], "tags": {"addr:city": "\u0647\u0631\u0642\u0644\u0629", "addr:postcode": "4012", "amenity": "cafe", "building": "yes", "name": "\u0642\u0647\u0648\u0629 \u0645\u062d\u0645\u0648\u062f", "name:ar": "\u0642\u0647\u0648\u0629 \u0645\u062d\u0645\u0648\u062f"}}, {"type": "way", "id": 271943717, "nodes": [2768622764, 2768622765, 2768622766, 2768622767, 2768622764], "tags": {"amenity": "cafe", "building": "yes", "name": "\u0642\u0647\u0648\u0629 \u0627\u0644\u0632\u0648", "name:ar": "\u0642\u0647\u0648\u0629 \u0627\u0644\u0632\u0648"}}, {"type": "way", "id": 273081806, "nodes": [2779822370, 2779822371, 2779822372, 2779822373, 5613319010, 2779822370], "tags": {"amenity": "cafe", "building": "yes"}}, {"type": "way", "id": 292035883, "nodes": [2955478556, 2955478558, 2955478557, 2955478555, 2955478552, 2955478556], "tags": {"brand": "\u0643\u0627\u0631\u0641\u0648\u0631 \u0645\u0627\u0631\u0643\u062a", "brand:ar": "\u0643\u0627\u0631\u0641\u0648\u0631 \u0645\u0627\u0631\u0643\u062a", "brand:wikidata": "Q2689639", "brand:wikipedia": "ar:\u0643\u0627\u0631\u0641\u0648\u0631 \u0645\u0627\u0631\u0643\u062a", "brand:wikipedia:ar": "\u0643\u0627\u0631\u0641\u0648\u0631 \u0645\u0627\u0631\u0643\u062a", "name": "\u0643\u0627\u0631\u0641\u0648\u0631 \u0645\u0627\u0631\u0643\u062a", "name:ar": "\u0643\u0627\u0631\u0641\u0648\u0631 \u0645\u0627\u0631\u0643\u062a", "name:en": "Carrefour Market", "name:fr": "Carrefour Market", "operator": "\u0645\u062c\u0645\u0648\u0639\u0629 \u0643\u0627\u0631\u0641\u0648\u0631", "operator:ar": "\u0645\u062c\u0645\u0648\u0639\u0629 \u0643\u0627\u0631\u0641\u0648\u0631", "operator:wikidata": "Q3117359", "operator:wikipedia": "ar:\u0643\u0627\u0631\u0641\u0648\u0631", "operator:wikipedia:ar": "\u0643\u0627\u0631\u0641\u0648\u0631", "shop": "supermarket"}}, {"type": "way", "id": 441930551, "nodes": [4396201242, 4396201243, 4396201245, 4396201244, 4396201246, 4396201247, 4396201242], "tags": {"amenity": "cafe", "cuisine": "international", "name": "My Wave"}}, {"type": "way", "id": 452242379, "nodes": [4490321232, 4490321230, 7623001252, 4490321233, 4490321236, 4490321237, 4490321234, 4490321235, 4490321232], "tags": {"addr:city": "\u0627\u0644\u062d\u0645\u0627\u0645\u0627\u062a", "addr:housename": "La Rambla", "addr:postcode": "8050", "addr:street": "\u0634\u0627\u0631\u0639 \u0623\u0633\u062f \u0627\u0628\u0646 \u0627\u0644\u0641\u0631\u0627\u062a", "amenity": "cafe", "cuisine": "international", "name": "\u0644\u0627 \u0631\u0627\u0645\u0628\u0644\u0627", "name:ar": "\u0644\u0627 \u0631\u0627\u0645\u0628\u0644\u0627", "name:en": "La Rambla", "website": "https://www.facebook.com/LARAMBLARESTOCAFE/"}}, {"type": "way", "id": 538972036, "nodes": [5216036658, 5216036659, 5216036660, 5216036656, 5216036658], "tags": {"amenity": "cafe", "building": "yes", "name": "Caf\u00e9 Kaabar"}}, {"type": "way", "id": 678873929, "nodes": [6356477703, 6356477704, 6356477705, 6356477706, 6356477707, 6356477708, 6356477709, 6356477710, 6356477711, 6356477712, 6356477713, 6356477714, 6356477715, 6356477716, 6356477717, 6356477718, 6356477703], "tags": {"addr:city": "\u0627\u0644\u0646\u0641\u064a\u0636\u0629", "building": "yes", "name": "\u063a\u0644\u0643\u0633\u064a \u0645\u0627\u0631\u0643\u062a", "name:ar": "\u063a\u0644\u0643\u0633\u064a \u0645\u0627\u0631\u0643\u062a", "name:en": "Galaxy Market", "name:fr": "Galaxy Market", "shop": "supermarket"}}, {"type": "way", "id": 697596853, "nodes": [6551282143, 6551282144, 6551282145, 6551282146, 6551282143], "tags": {"building": "yes", "name": "\u0627\u0646\u0648\u0631 \u0645\u0627\u0631\u0643\u062a", "name:ar": "\u0627\u0646\u0648\u0631 \u0645\u0627\u0631\u0643\u062a", "name:en": "Anouar Market", "name:fr": "Anouar Market", "shop": "supermarket"}}]}