{"version": 0.6, "generator": "Overpass API 0.7.62.8 e802775f", "osm3s": {"timestamp_osm_base": "2025-12-20T09:24:18Z", "copyright": "The data included in this document is from www.openstreetmap.org. The data is made available under ODbL."}, "elements": [{"type": "node", "id": 1659512179, "lat": 36.8381597, "lon": 11.116379, "tags": {"amenity": "cafe", "name": "Au Fort"}}, {"type": "node", "id": 2187715364, "lat": 36.5780222, "lon": 10.8596386}, {"type": "node", "id": 2188485399, "lat": 36.5388225, "lon": 10.8481987, "tags": {"amenity": "cafe", "name": "Caf\u00e9 de Tazarka"}}, {"type": "node", "id": 2570750326, "lat": 36.8450089, "lon": 11.0948933, "tags": {"addr:street": "Avenue des martyrs", "fax": "+216 72 273 147", "name": "MG Proxi K\u00e9libia", "phone": "+216 72 273 148", "shop": "supermarket"}}, {"type": "node", "id": 2570824443, "lat": 36.8389881, "lon": 11.1172303, "tags": {"amenity": "cafe", "name": "Caf\u00e9 du Fort"}}, {"type": "node", "id": 2570824530, "lat": 36.8335655, "lon": 11.1157551, "tags": {"amenity": "cafe", "name": "sidi el bahri"}}, {"type": "node", "id": 2570826858, "lat": 36.8321429, "lon": 11.1122286, "tags": {"amenity": "cafe", "name": "Cafeteria Agil"}}, {"type": "node", "id": 2570830738, "lat": 36.8372923, "lon": 11.1096772, "tags": {"amenity": "cafe", "name": "Club des Sports Nautiques de K\u00e9libia (CSNK)"}}, {"type": "node", "id": 2570838120, "lat": 36.8419001, "lon": 11.1017061, "tags": {"amenity": "cafe", "name": "Caf\u00e9 Eddokena \u0627\u0644\u062f\u0643\u0651\u0627\u0646\u0629"}}, {"type": "node", "id": 2570850760, "lat": 36.8467865, "lon": 11.0912987, "tags": {"amenity": "cafe", "name": "Cafeteria C.O.K"}}, {"type": "node", "id": 2570850764, "lat": 36.8465718, "lon": 11.0913148, "tags": {"amenity": "cafe", "name": "\u0645\u0642\u0647\u0649 \u062f\u0627\u0631 \u0627\u0644\u0634\u0639\u0628", "name:ar": "\u0645\u0642\u0647\u0649 \u062f\u0627\u0631 \u0627\u0644\u0634\u0639\u0628", "name:fr": "dar echa3b"}}, {"type": "node", "id": 3466391279, "lat": 36.8483943, "lon": 11.0898255, "tags": {"addr:city": "\u0642\u0644\u064a\u0628\u064a\u0629", "addr:housenumber": "70", "addr:postcode": "8090", "addr:street": "\u0634\u0627\u0631\u0639 \u0627\u0628\u0646 \u062e\u0644\u062f\u0648\u0646", "addr:street:ar": "\u0634\u0627\u0631\u0639 \u0627\u0628\u0646 \u062e\u0644\u062f\u0648\u0646", "amenity": "cafe", "cuisine": "coffee_shop", "ele": "50", "internet_access": "no", "name": "\u0645\u0642\u0647\u0649 \u0639\u0644\u0627\u0621 \u0627\u0644\u062f\u064a\u0646", "name:ar": "\u0645\u0642\u0647\u0649 \u0639\u0644\u0627\u0621 \u0627\u0644\u062f\u064a\u0646", "operator": "\u0639\u0628\u062f \u0627\u0644\u062d\u0645\u064a\u062f \u0627\u0644\u0634\u0643\u064a\u0644\u064a", "smoking": "yes", "takeaway": "yes"}}, {"type": "node", "id": 3518257094, "lat": 36.8471106, "lon": 11.0910275, "tags": {"addr:postcode": "8090", "addr:street": "\u0634\u0627\u0631\u0639 \u0625\u0628\u0631\u0627\u0647\u064a\u0645 \u0627\u0644\u063a\u0631\u0628\u064a", "brand": "\u0639\u0632\u064a\u0632\u0629", "brand:ar": "\u0639\u0632\u064a\u0632\u0629", "brand:wikidata": "Q22348303", "brand:wikipedia": "ar:\u0639\u0632\u064a\u0632\u0629", "brand:wikipedia:ar": "\u0639\u0632\u064a\u0632\u0629", "name": "\u0639\u0632\u064a\u0632\u0629", "name:ar": "\u0639\u0632\u064a\u0632\u0629", "name:en": "Aziza", "name:fr": "Aziza", "operator": "\u0645\u062c\u0645\u0648\u0639\u0629 \u0633\u0644\u0627\u0645\u0629", "operator:ar": "\u0645\u062c\u0645\u0648\u0639\u0629 \u0633\u0644\u0627\u0645\u0629", "shop": "supermarket"}}, {"type": "node", "id": 3518269059, "lat": 36.8472215, "lon": 11.0905379, "tags": {"addr:city": "\u0642\u0644\u064a\u0628\u064a\u0629", "addr:postcode": "8090", "addr:street": "Avenue Ibn khaldoun", "brand:wikidata": "Q2940190", "name": "\u0643\u0627\u0631\u0641\u0648\u0631 \u0625\u0643\u0633\u0628\u0631\u064a\u0633", "name:ar": "\u0643\u0627\u0631\u0641\u0648\u0631 \u0625\u0643\u0633\u0628\u0631\u064a\u0633", "name:en": "Carrefour Express", "name:fr": "Carrefour Express", "shop": "supermarket"}}, {"type": "node", "id": 3616544464, "lat": 36.8474258, "lon": 11.090643, "tags": {"addr:city": "\u0642\u0644\u064a\u0628\u064a\u0629", "addr:street": "\u0634\u0627\u0631\u0639 \u0627\u0628\u0646 \u062e\u0644\u062f\u0648\u0646", "amenity": "pharmacy", "healthcare": "pharmacy", "name": "\u0635\u064a\u062f\u0644\u064a\u0629 \u0628\u0646 \u062d\u062f\u064a\u062f", "name:ar": "\u0635\u064a\u062f\u0644\u064a\u0629 \u0628\u0646 \u062d\u062f\u064a\u062f"}}, {"type": "node", "id": 3624126117, "lat": 36.8481879, "lon": 11.0899987, "tags": {"name": "\u0645\u063a\u0627\u0632\u0629 \u062d\u0645\u0627\u062f\u064a \u064a\u0648\u0646\u0633", "name:ar": "\u0645\u063a\u0627\u0632\u0629 \u062d\u0645\u0627\u062f\u064a \u064a\u0648\u0646\u0633", "operator": "\u062d\u0645\u0627\u062f\u064a \u064a\u0648\u0646\u0633", "shop": "convenience"}}, {"type": "node", "id": 3634757796, "lat": 36.847536, "lon": 11.0905604, "tags": {"addr:city": "\u0642\u0644\u064a\u0628\u064a\u0629", "addr:street": "\u0634\u0627\u0631\u0639 \u0627\u0628\u0646 \u062e\u0644\u062f\u0648\u0646", "name": "Maha Mode", "shop": "clothes"}}, {"type": "node", "id": 3636048490, "lat": 36.8462363, "lon": 11.0871805, "tags": {"addr:city": "\u0642\u0644\u064a\u0628\u064a\u0629", "addr:street": "\u0634\u0627\u0631\u0639 \u0627\u0644\u062d\u0628\u064a\u0628 \u0628\u0648\u0631\u0642\u064a\u0628\u0629", "addr:street:ar": "\u0634\u0627\u0631\u0639 \u0627\u0644\u062d\u0628\u064a\u0628 \u0628\u0648\u0631\u0642\u064a\u0628\u0629", "amenity": "pharmacy", "drive_through": "no", "healthcare": "pharmacy", "name": "\u0635\u064a\u062f\u0644\u064a\u0629 \u0628\u0648\u0641\u0627\u064a\u062f", "name:ar": "\u0635\u064a\u062f\u0644\u064a\u0629 \u0628\u0648\u0641\u0627\u064a\u062f", "operator": "\u0639\u0628\u062f \u0627\u0644\u0642\u0627\u062f\u0631 \u0628\u0648\u0641\u0627\u064a\u062f", "operator:fr": "AbdelKader Boufaied"}}, {"type": "node", "id": 3646844553, "lat": 36.8466169, "lon": 11.0894813, "tags": {"name": "\u0648\u062d\u064a\u062f \u0628\u0646 \u0631\u062c\u0628", "name:ar": "\u0648\u062d\u064a\u062f \u0628\u0646 \u0631\u062c\u0628", "shop": "convenience"}}, {"type": "node", "id": 3673792835, "lat": 36.850403, "lon": 11.0904704, "tags": {"name": "bonus", "shop": "supermarket"}}, {"type": "node", "id": 3813057927, "lat": 36.8474986, "lon": 11.0863196, "tags": {"amenity": "cafe", "internet_access": "no", "name": "\u0643\u0627\u0641\u064a\u062a\u064a\u0631\u064a\u0627 \u0627\u0644\u0632\u0642\u0644\u064a", "name:ar": "\u0643\u0627\u0641\u064a\u062a\u064a\u0631\u064a\u0627 \u0627\u0644\u0632\u0642\u0644\u064a", "name:fr": "Pause Caf\u00e9 Ezgoli", "smoking": "yes"}}, {"type": "node", "id": 3823447745, "lat": 36.8489177, "lon": 11.0976566, "tags": {"addr:city": "\u0642\u0644\u064a\u0628\u064a\u0629", "addr:housenumber": "152", "amenity": "pharmacy", "drive_through": "no", "healthcare": "pharmacy", "name": "\u0635\u064a\u062f\u0644\u064a\u0629 \u0627\u0644\u0633\u0644\u064a\u062a\u064a", "name:ar": "\u0635\u064a\u062f\u0644\u064a\u0629 \u0627\u0644\u0633\u0644\u064a\u062a\u064a", "name:fr": "Siliti", "operator": "\u0645\u062d\u0633\u0646 \u0627\u0644\u0633\u0644\u064a\u062a\u064a", "operator:fr": "Sliti Mohsen", "phone": "+216 72 296 933"}}, {"type": "node", "id": 3911363537, "lat": 36.8470209, "lon": 11.0914502, "tags": {"amenity": "pharmacy", "healthcare": "pharmacy", "name": "\u0635\u064a\u062f\u0644\u064a\u0629 \u0627\u0644\u0644\u064a\u0644", "name:ar": "\u0635\u064a\u062f\u0644\u064a\u0629 \u0627\u0644\u0644\u064a\u0644", "operator": "Fethi Henia", "operator:ar": "\u0641\u062a\u062d\u064a \u0647\u0646\u064a\u0629"}}, {"type": "node", "id": 3978701024, "lat": 36.8535894, "lon": 11.0924975, "tags": {"amenity": "pharmacy", "healthcare": "pharmacy", "name": "\u0635\u064a\u062f\u0644\u064a\u0629 \u0628\u0646 \u0646\u0627\u0635\u0631", "name:ar": "\u0635\u064a\u062f\u0644\u064a\u0629 \u0628\u0646 \u0646\u0627\u0635\u0631", "name:fr": "Ben Naceur"}}, {"type": "node", "id": 4348632875, "lat": 36.7758629, "lon": 11.0126701}, {"type": "node", "id": 4348632876, "lat": 36.7757272, "lon": 11.0129135}, {"type": "node", "id": 4348632877, "lat": 36.7761911, "lon": 11.0133263}, {"type": "node", "id": 4348632878, "lat": 36.776317, "lon": 11.0130891}, {"type": "node", "id": 4348632879, "lat": 36.7759912, "lon": 11.012781}, {"type": "node", "id": 5061947204, "lat": 36.5618458, "lon": 10.8537886, "tags": {"amenity": "cafe", "cuisine": "coffee_shop", "name": "Caf\u00e9 Ambra-\u0645\u0642\u0647\u0649 \u0627\u0644\u0639\u0646\u0628\u0631\u0629"}}, {"type": "node", "id": 5494834901, "lat": 36.8459256, "lon": 11.0939165, "tags": {"amenity": "pharmacy", "dispensing": "yes", "drive_through": "no", "healthcare": "pharmacy", "name": "Pharmacie Ben Rhouma"}}, {"type": "node", "id": 5551452897, "lat": 36.8511828, "lon": 11.0910236, "tags": {"addr:city": "\u0642\u0644\u064a\u0628\u064a\u0629", "addr:street": "\u0634\u0627\u0631\u0639 \u0639\u0644\u064a \u0628\u0644\u0647\u0648\u0627\u0646", "amenity": "pharmacy", "dispensing": "yes", "drive_through": "no", "healthcare": "pharmacy", "name": "\u0635\u064a\u062f\u0644\u064a\u0629 \u0628\u0646 \u0631\u062c\u0628", "name:ar": "\u0635\u064a\u062f\u0644\u064a\u0629 \u0628\u0646 \u0631\u062c\u0628"}}, {"type": "node", "id": 5987425785, "lat": 36.7758145, "lon": 11.0129649, "tags": {"amenity": "cafe", "name": "la siren"}}, {"type": "node", "id": 6262780307, "lat": 36.5625761, "lon": 10.8540434, "tags": {"brand:wikidata": "Q2689639", "name": "\u0643\u0627\u0631\u0641\u0648\u0631 \u0645\u0627\u0631\u0643\u062a", "name:ar": "\u0643\u0627\u0631\u0641\u0648\u0631 \u0645\u0627\u0631\u0643\u062a", "name:en": "Carrefour Market", "name:fr": "Carrefour Market", "opening_hours": "Mo-Su 08:00-21:00", "payment:cash": "yes", "payment:credit_cards": "yes", "shop": "supermarket", "website": "https://carrefourtunisie.com/", "wheelchair": "yes"}}, {"type": "node", "id": 6262795164, "lat": 36.5650244, "lon": 10.8542298, "tags": {"name": "\u0627\u0646\u0648\u0631 \u0645\u0627\u0631\u0643\u062a", "name:ar": "\u0627\u0646\u0648\u0631 \u0645\u0627\u0631\u0643\u062a", "name:en": "Anouar Market", "name:fr": "Anouar Market", "opening_hours": "Mo-Su 08:00-00:00", "payment:cash": "yes", "payment:credit_cards": "yes", "phone": "+216 27 360 701", "shop": "supermarket", "website": "elanouarmarket.com.tn", "wheelchair": "yes"}}, {"type": "node", "id": 6318392120, "lat": 36.574372, "lon": 10.8589317, "tags": {"amenity": "pharmacy", "dispensing": "yes", "healthcare": "pharmacy", "name": "Pharmacie Ben Jabeur"}}, {"type": "node", "id": 6318392121, "lat": 36.5746781, "lon": 10.8590457, "tags": {"amenity": "pharmacy", "dispensing": "yes", "healthcare": "pharmacy", "name": "Pharmacie de Nuit - Ben Hmida"}}, {"type": "node", "id": 6318392124, "lat": 36.5754026, "lon": 10.8593514, "tags": {"amenity": "cafe", "name": "Caf\u00e9 Carthage"}}, {"type": "node", "id": 6318392129, "lat": 36.5776312, "lon": 10.8601123, "tags": {"name": "\u0627\u0646\u0648\u0631 \u0645\u0627\u0631\u0643\u062a", "name:ar": "\u0627\u0646\u0648\u0631 \u0645\u0627\u0631\u0643\u062a", "name:en": "Anouar Market", "name:fr": "Anouar Market", "shop": "supermarket"}}, {"type": "node", "id": 6318392131, "lat": 36.5777655, "lon": 10.8601019}, {"type": "node", "id": 6318392132, "lat": 36.5774445, "lon": 10.8595655}, {"type": "node", "id": 6318392133, "lat": 36.5774058, "lon": 10.8594608}, {"type": "node", "id": 6318392134, "lat": 36.5773864, "lon": 10.8594287}, {"type": "node", "id": 6318392135, "lat": 36.5775092, "lon": 10.859257}, {"type": "node", "id": 6318392136, "lat": 36.5775738, "lon": 10.8593401}, {"type": "node", "id": 6318392137, "lat": 36.5775027, "lon": 10.8594474}, {"type": "node", "id": 6318392138, "lat": 36.5775932, "lon": 10.8595708}, {"type": "node", "id": 6318392139, "lat": 36.5776772, "lon": 10.8594582}, {"type": "node", "id": 6318392140, "lat": 36.5777978, "lon": 10.8596111}, {"type": "node", "id": 6318392141, "lat": 36.5778646, "lon": 10.8595467}, {"type": "node", "id": 6318392142, "lat": 36.5779292, "lon": 10.8595333}, {"type": "node", "id": 6318392149, "lat": 36.5784353, "lon": 10.85878, "tags": {"amenity": "pharmacy", "dispensing": "yes", "healthcare": "pharmacy", "name": "Pharmacie Faycal Garbaa"}}, {"type": "node", "id": 6318392161, "lat": 36.5769858, "lon": 10.8601661, "tags": {"amenity": "cafe", "name": "\u0645\u0642\u0647\u0649 \u0648 \u0645\u0637\u0639\u0645 \u0627\u0644\u0639\u0627\u0626\u0644\u064a", "name:ar": "\u0645\u0642\u0647\u0649 \u0648 \u0645\u0637\u0639\u0645 \u0627\u0644\u0639\u0627\u0626\u0644\u064a"}}, {"type": "node", "id": 6318392167, "lat": 36.5773985, "lon": 10.8604076, "tags": {"amenity": "cafe", "name": "\u0645\u0642\u0647\u0649 \u0645\u0648\u0632\u0627\u064a\u064a\u0643", "name:ar": "\u0645\u0642\u0647\u0649 \u0645\u0648\u0632\u0627\u064a\u064a\u0643"}}, {"type": "node", "id": 6318392169, "lat": 36.574266, "lon": 10.8604782, "tags": {"amenity": "cafe", "name": "Caf\u00e9 Miami"}}, {"type": "node", "id": 6318392486, "lat": 36.5726684, "lon": 10.857496, "tags": {"amenity": "cafe", "name": "El Ons"}}, {"type": "node", "id": 6318392487, "lat": 36.5730994, "lon": 10.8570616, "tags": {"amenity": "cafe", "name": "Caf\u00e9 Arabesque"}}, {"type": "node", "id": 6318392489, "lat": 36.5729691, "lon": 10.8556462, "tags": {"amenity": "cafe", "name": "Cafe Mirage"}}, {"type": "node", "id": 6318392491, "lat": 36.5702446, "lon": 10.8568619, "tags": {"amenity": "cafe", "name": "Caf\u00e9 IN"}}, {"type": "node", "id": 6318392508, "lat": 36.5720657, "lon": 10.8657958, "tags": {"amenity": "cafe", "name": "Luna Casa"}}, {"type": "node", "id": 6318392515, "lat": 36.5772028, "lon": 10.8632607, "tags": {"amenity": "cafe", "name": "Caf\u00e9 Batoir"}}, {"type": "node", "id": 6318392516, "lat": 36.5788596, "lon": 10.8641528, "tags": {"amenity": "cafe", "name": "Caf\u00e9 Chichkhan"}}, {"type": "node", "id": 6318392517, "lat": 36.5795798, "lon": 10.8629679, "tags": {"amenity": "cafe", "name": "Caf\u00e9 du Stade"}}, {"type": "node", "id": 6318392559, "lat": 36.8407426, "lon": 11.1041557, "tags": {"amenity": "cafe", "name": "Caf\u00e9 Del Mondo"}}, {"type": "node", "id": 6318392563, "lat": 36.8403485, "lon": 11.1027847, "tags": {"amenity": "cafe", "name": "l'Aquarium"}}, {"type": "node", "id": 6321849209, "lat": 36.8491662, "lon": 11.0977744, "tags": {"amenity": "cafe", "name": "\u0633\u064a\u062f\u064a \u0628\u0646 \u0639\u064a\u0633", "name:ar": "\u0633\u064a\u062f\u064a \u0628\u0646 \u0639\u064a\u0633"}}, {"type": "node", "id": 6321849219, "lat": 36.8450254, "lon": 11.1210081, "tags": {"amenity": "cafe", "name": "Cafe Fatha"}}, {"type": "node", "id": 6321849228, "lat": 36.8498556, "lon": 11.1233911, "tags": {"amenity": "cafe", "name": "Caf\u00e9 Cap K\u00e9libia"}}, {"type": "node", "id": 6321849248, "lat": 36.8361627, "lon": 11.1118022, "tags": {"amenity": "cafe", "name": "El Barraka"}}, {"type": "node", "id": 6321849250, "lat": 36.8359666, "lon": 11.1121637, "tags": {"name": "Samoud Arafet", "shop": "supermarket"}}, {"type": "node", "id": 6321849255, "lat": 36.8375913, "lon": 11.1089144, "tags": {"amenity": "cafe", "name": "Caf\u00e9 Ommi Zohra"}}, {"type": "node", "id": 6321849257, "lat": 36.8379614, "lon": 11.1082195, "tags": {"amenity": "cafe", "name": "Caf\u00e9 El Malouf"}}, {"type": "node", "id": 6321849258, "lat": 36.8379937, "lon": 11.1066954, "tags": {"amenity": "cafe", "name": "Flamingo coffee"}}, {"type": "node", "id": 6321849259, "lat": 36.837912, "lon": 11.1057115, "tags": {"amenity": "cafe", "name": "Caf\u00e9 Charbabbou-Chez Jhonny"}}, {"type": "node", "id": 6321849260, "lat": 36.8370614, "lon": 11.1021754, "tags": {"amenity": "cafe", "name": "Caf\u00e9 Ennasim"}}, {"type": "node", "id": 6321849262, "lat": 36.8398666, "lon": 11.1017858, "tags": {"amenity": "cafe", "name": "Salon de Th\u00e9 Thalassa"}}, {"type": "node", "id": 6321849263, "lat": 36.839675, "lon": 11.1014026, "tags": {"amenity": "cafe", "name": "Caf\u00e9 Gara"}}, {"type": "node", "id": 6321849264, "lat": 36.8417588, "lon": 11.1020466, "tags": {"amenity": "cafe", "name": "Big Ben"}}, {"type": "node", "id": 6321849268, "lat": 36.8421228, "lon": 11.0997263, "tags": {"amenity": "cafe", "name": "Lampara Caf\u00e9"}}, {"type": "node", "id": 6321849269, "lat": 36.8430299, "lon": 11.1018327, "tags": {"amenity": "cafe", "name": "El Garage 8090"}}, {"type": "node", "id": 6321849270, "lat": 36.8428505, "lon": 11.1023659, "tags": {"amenity": "cafe", "name": "Caf\u00e9 Mondiale"}}, {"type": "node", "id": 6321849271, "lat": 36.8443213, "lon": 11.1003973, "tags": {"amenity": "cafe", "name": "Caf\u00e9 Pergola"}}, {"type": "node", "id": 6321849272, "lat": 36.8443699, "lon": 11.1012284, "tags": {"amenity": "cafe", "name": "Caf\u00e9 Hamma"}}, {"type": "node", "id": 6321849275, "lat": 36.8432677, "lon": 11.0952399, "tags": {"amenity": "cafe", "name": "Loft"}}, {"type": "node", "id": 6321849276, "lat": 36.8440348, "lon": 11.0975119, "tags": {"amenity": "cafe", "name": "Caf\u00e9 Del Mondo"}}, {"type": "node", "id": 6321849279, "lat": 36.8444591, "lon": 11.0963738, "tags": {"amenity": "cafe", "name": "Caf\u00e9 Omar"}}, {"type": "node", "id": 6321849281, "lat": 36.8447526, "lon": 11.0957727, "tags": {"amenity": "cafe", "name": "Caf\u00e9 Bachtambour"}}, {"type": "node", "id": 6321849283, "lat": 36.8450706, "lon": 11.0953617, "tags": {"amenity": "cafe", "name": "Caf\u00e9 Jeune"}}, {"type": "node", "id": 6321849284, "lat": 36.8461741, "lon": 11.0922236, "tags": {"amenity": "cafe", "name": "La Palma"}}, {"type": "node", "id": 6348408777, "lat": 36.7802754, "lon": 10.9939745}, {"type": "node", "id": 6348408778, "lat": 36.7801688, "lon": 10.9941417}, {"type": "node", "id": 6348408779, "lat": 36.7803746, "lon": 10.9943027}, {"type": "node", "id": 6348408780, "lat": 36.7804292, "lon": 10.9941479}, {"type": "node", "id": 6348411288, "lat": 36.7791293, "lon": 10.9923097}, {"type": "node", "id": 6348411289, "lat": 36.7793286, "lon": 10.9925039}, {"type": "node", "id": 6348411290, "lat": 36.7792169, "lon": 10.9927063}, {"type": "node", "id": 6348411291, "lat": 36.7790154, "lon": 10.9925285}, {"type": "node", "id": 6348411294, "lat": 36.7784041, "lon": 10.992258}, {"type": "node", "id": 6348411295, "lat": 36.7785235, "lon": 10.9923368}, {"type": "node", "id": 6348411296, "lat": 36.7782939, "lon": 10.9927313}, {"type": "node", "id": 6348411297, "lat": 36.7781701, "lon": 10.9926686}, {"type": "node", "id": 6348411298, "lat": 36.7770876, "lon": 10.9911071}, {"type": "node", "id": 6348411299, "lat": 36.77716, "lon": 10.9911128}, {"type": "node", "id": 6348411300, "lat": 36.7772702, "lon": 10.9912126}, {"type": "node", "id": 6348411301, "lat": 36.7771299, "lon": 10.9914066}, {"type": "node", "id": 6348411302, "lat": 36.7770152, "lon": 10.9911542}, {"type": "node", "id": 6348411309, "lat": 36.7777447, "lon": 10.9827897}, {"type": "node", "id": 6348411310, "lat": 36.777619, "lon": 10.9829515}, {"type": "node", "id": 6348411311, "lat": 36.7778279, "lon": 10.9832003}, {"type": "node", "id": 6348411312, "lat": 36.7779246, "lon": 10.983094}, {"type": "node", "id": 6348411326, "lat": 36.7733711, "lon": 10.9815886, "tags": {"amenity": "cafe", "name": "Caf\u00e9 Becha"}}, {"type": "node", "id": 6348411333, "lat": 36.7805162, "lon": 10.9864383, "tags": {"amenity": "pharmacy", "dispensing": "yes", "healthcare": "pharmacy", "name": "Pharmacie Sahmim"}}, {"type": "node", "id": 6348411334, "lat": 36.780289, "lon": 10.9864511}, {"type": "node", "id": 6348411335, "lat": 36.7801677, "lon": 10.9864874}, {"type": "node", "id": 6348411336, "lat": 36.7802394, "lon": 10.9868606}, {"type": "node", "id": 6348411337, "lat": 36.7801608, "lon": 10.9868862}, {"type": "node", "id": 6348411338, "lat": 36.7801147, "lon": 10.9869396}, {"type": "node", "id": 6348411339, "lat": 36.7801386, "lon": 10.9870036}, {"type": "node", "id": 6348411340, "lat": 36.7801779, "lon": 10.9869865}, {"type": "node", "id": 6348411341, "lat": 36.7802138, "lon": 10.9870697}, {"type": "node", "id": 6348411342, "lat": 36.7804495, "lon": 10.9868606}, {"type": "node", "id": 6348411343, "lat": 36.7803744, "lon": 10.9865514}, {"type": "node", "id": 6348411345, "lat": 36.7806648, "lon": 10.9880487, "tags": {"amenity": "pharmacy", "dispensing": "yes", "healthcare": "pharmacy", "name": "\u0635\u064a\u062f\u0644\u064a\u0629 \u0627\u0644\u0644\u064a\u0644", "name:ar": "\u0635\u064a\u062f\u0644\u064a\u0629 \u0627\u0644\u0644\u064a\u0644", "name:fr": "Pharmacie de Nuit"}}, {"type": "node", "id": 6348411346, "lat": 36.7812507, "lon": 10.9882513, "tags": {"amenity": "cafe", "name": "Mandila"}}, {"type": "node", "id": 6348411356, "lat": 36.7814863, "lon": 10.9887369, "tags": {"amenity": "cafe", "name": "Caf\u00e9 Zhioua"}}, {"type": "node", "id": 6348411357, "lat": 36.7822777, "lon": 10.9885426}, {"type": "node", "id": 6348411358, "lat": 36.7821442, "lon": 10.9887068}, {"type": "node", "id": 6348411359, "lat": 36.7823763, "lon": 10.9890256}, {"type": "node", "id": 6348411360, "lat": 36.7825098, "lon": 10.9888445}, {"type": "node", "id": 6348411361, "lat": 36.7832142, "lon": 10.9891906, "tags": {"amenity": "pharmacy", "dispensing": "yes", "healthcare": "pharmacy", "name": "Ben Sedrine"}}, {"type": "node", "id": 6348411373, "lat": 36.783343, "lon": 11.0016075, "tags": {"amenity": "cafe", "name": "MC27"}}, {"type": "node", "id": 6355520567, "lat": 36.5456598, "lon": 10.8370604, "tags": {"amenity": "pharmacy", "dispensing": "yes", "healthcare": "pharmacy", "name": "\u0635\u064a\u062f\u0644\u064a\u0629 \u0627\u0644\u0644\u064a\u0644", "name:ar": "\u0635\u064a\u062f\u0644\u064a\u0629 \u0627\u0644\u0644\u064a\u0644", "name:fr": "Pharmacie de nuit"}}, {"type": "node", "id": 8536833461, "lat": 36.8445969, "lon": 11.0893192, "tags": {"amenity": "cafe", "description": "this is the place where i live", "name": "My house"}}, {"type": "node", "id": 9764707442, "lat": 36.574901, "lon": 10.8587543, "tags": {"air_conditioning": "yes", "name": "INFO PLUS PLUS", "opening_hours": "Mo-Su 08:00-20:00", "operator": "Khemir Helmi", "payment:cards": "yes", "payment:cash": "yes", "payment:coins": "yes", "payment:credit_cards": "yes", "payment:debit_cards": "yes", "payment:mastercard": "yes", "payment:visa": "yes", "phone": "+216 72 383 220", "shop": "supermarket"}}, {"type": "node", "id": 9764721209, "lat": 36.5748418, "lon": 10.8590856, "tags": {"name": "INFO PLUS", "opening_hours": "Mo-Su 09:00-21:00", "operator": "Helmi Khemir", "payment:cash": "yes", "phone": "+216 72 389 743", "shop": "supermarket"}}, {"type": "node", "id": 11238512928, "lat": 36.7823196, "lon": 10.9988629, "tags": {"amenity": "cafe", "internet_access": "wlan", "internet_access:fee": "no", "name": "Instant caf\u00e9", "opening_hours": "Mo-Su 06:00-00:00"}}, {"type": "node", "id": 12618163760, "lat": 36.8419818, "lon": 11.0896975, "tags": {"name": "S-MIGROS", "shop": "convenience"}}, {"type": "way", "id": 437030187, "nodes": [4348632875, 4348632876, 4348632877, 4348632878, 4348632879, 4348632875], "tags": {"amenity": "cafe", "building": "yes", "internet_access": "wlan", "name": "La sir\u00e8ne", "smoking": "yes"}}, {"type": "way", "id": 674671122, "nodes": [6318392131, 6318392132, 6318392133, 6318392134, 6318392135, 6318392136, 6318392137, 6318392138, 6318392139, 6318392140, 6318392141, 6318392142, 2187715364, 6318392131], "tags": {"brand": "\u0645\u0648\u0646\u0648\u0628\u0631\u064a", "brand:ar": "\u0645\u0648\u0646\u0648\u0628\u0631\u064a", "brand:wikidata": "Q3321241", "brand:wikipedia": "ar:\u0645\u0648\u0646\u0648\u0628\u0631\u064a (\u0641\u0631\u0646\u0633\u0627)", "brand:wikipedia:ar": "\u0645\u0648\u0646\u0648\u0628\u0631\u064a (\u0641\u0631\u0646\u0633\u0627)", "building": "yes", "name": "\u0645\u0648\u0646\u0648\u0628\u0631\u064a", "name:ar": "\u0645\u0648\u0646\u0648\u0628\u0631\u064a", "name:en": "Monoprix", "name:fr": "Monoprix", "shop": "supermarket"}}, {"type": "way", "id": 678016067, "nodes": [6348408777, 6348408778, 6348408779, 6348408780, 6348408777], "tags": {"building": "yes", "name": "Express-Market", "shop": "supermarket"}}, {"type": "way", "id": 678016069, "nodes": [6348411288, 6348411289, 6348411290, 6348411291, 6348411288], "tags": {"brand": "Carrefour Express", "brand:ar": "\u0643\u0627\u0631\u0641\u0648\u0631 \u0625\u0643\u0633\u0628\u0631\u0633", "brand:wikidata": "Q2940190", "brand:wikipedia": "ar:\u0643\u0627\u0631\u0641\u0648\u0631 \u0625\u0643\u0633\u0628\u0631\u064a\u0633", "brand:wikipedia:ar": "\u0643\u0627\u0631\u0641\u0648\u0631 \u0625\u0643\u0633\u0628\u0631\u064a\u0633", "building": "yes", "name": "Carrefour Express", "name:ar": "\u0643\u0627\u0631\u0641\u0648\u0631 \u0625\u0643\u0633\u0628\u0631\u0633", "name:en": "Carrefour Express", "name:fr": "Carrefour Express", "operator": "\u0645\u062c\u0645\u0648\u0639\u0629 \u0643\u0627\u0631\u0641\u0648\u0631", "operator:ar": "\u0645\u062c\u0645\u0648\u0639\u0629 \u0643\u0627\u0631\u0641\u0648\u0631", "operator:wikidata": "Q3117359", "operator:wikipedia": "ar:\u0643\u0627\u0631\u0641\u0648\u0631", "operator:wikipedia:ar": "\u0643\u0627\u0631\u0641\u0648\u0631", "shop": "convenience"}}, {"type": "way", "id": 678016070, "nodes": [6348411294, 6348411295, 6348411296, 6348411297, 6348411294], "tags": {"building": "yes", "name": "Cocona-Market", "shop": "supermarket"}}, {"type": "way", "id": 678016071, "nodes": [6348411298, 6348411299, 6348411300, 6348411301, 6348411302, 6348411298], "tags": {"building": "yes", "name": "\u0639\u0632\u064a\u0632\u0629", "name:ar": "\u0639\u0632\u064a\u0632\u0629", "name:fr": "Aziza", "shop": "supermarket"}}, {"type": "way", "id": 678016073, "nodes": [6348411309, 6348411310, 6348411311, 6348411312, 6348411309], "tags": {"building": "yes", "name": "Magasin LMIMA", "shop": "supermarket"}}, {"type": "way", "id": 678016077, "nodes": [6348411334, 6348411335, 6348411336, 6348411337, 6348411338, 6348411339, 6348411340, 6348411341, 6348411342, 6348411343, 6348411334], "tags": {"brand": "Monoprix", "brand:ar": "\u0645\u0648\u0646\u0648\u0628\u0631\u064a", "brand:wikidata": "Q2719231", "brand:wikipedia": "ar:\u0645\u0648\u0646\u0648\u0628\u0631\u064a (\u0641\u0631\u0646\u0633\u0627)", "brand:wikipedia:ar": "\u0645\u0648\u0646\u0648\u0628\u0631\u064a (\u0641\u0631\u0646\u0633\u0627)", "building": "yes", "name": "Monoprix", "name:ar": "\u0645\u0648\u0646\u0648\u0628\u0631\u064a", "name:en": "Monoprix", "name:fr": "Monoprix", "shop": "supermarket"}}, {"type": "way", "id": 678016081, "nodes": [6348411357, 6348411358, 6348411359, 6348411360, 6348411357], "tags": {"building": "yes", "name": "MG City", "shop": "supermarket"}}]}