{"version": 0.6, "generator": "Overpass API 0.7.62.8 e802775f", "osm3s": {"timestamp_osm_base": "2025-12-20T09:21:16Z", "copyright": "The data included in this document is from www.openstreetmap.org. The data is made available under ODbL."}, "elements": [{"type": "node", "id": 2610190989, "lat": 35.2982055, "lon": 10.7052577, "tags": {"amenity": "cafe", "name": "Dar El Jem", "operator": "Soci\u00e9t\u00e9 d\u2019Animation Touristique et Culture Dar El Jem"}}, {"type": "node", "id": 2610191009, "lat": 35.2950401, "lon": 10.7081155}, {"type": "node", "id": 2610191010, "lat": 35.2951405, "lon": 10.708356}, {"type": "node", "id": 2610191011, "lat": 35.2951406, "lon": 10.7080525}, {"type": "node", "id": 2610191012, "lat": 35.2951808, "lon": 10.7081489}, {"type": "node", "id": 2610191013, "lat": 35.2952136, "lon": 10.7081284}, {"type": "node", "id": 2610191014, "lat": 35.2952737, "lon": 10.7082725}, {"type": "node", "id": 6418955185, "lat": 35.2936792, "lon": 10.7090021, "tags": {"name": "\u0627\u0644\u0645\u063a\u0627\u0632\u0629 \u0627\u0644\u0639\u0627\u0645\u0629", "name:ar": "\u0627\u0644\u0645\u063a\u0627\u0632\u0629 \u0627\u0644\u0639\u0627\u0645\u0629", "name:en": "Magasin\u200b G\u00e9n\u00e9ral", "name:fr": "Magasin\u200b G\u00e9n\u00e9ral", "shop": "supermarket"}}, {"type": "node", "id": 8205042841, "lat": 35.2189518, "lon": 10.7106264, "tags": {"amenity": "cafe", "name": "Caf\u00e9 Elhach", "name:fr": "Caf\u00e9 Elhach"}}, {"type": "node", "id": 8205058755, "lat": 35.4057352, "lon": 10.6733488, "tags": {"amenity": "pharmacy", "dispensing": "yes", "healthcare": "pharmacy"}}, {"type": "node", "id": 8205058756, "lat": 35.4053278, "lon": 10.6728683, "tags": {"amenity": "cafe"}}, {"type": "node", "id": 8205058757, "lat": 35.4062394, "lon": 10.67249, "tags": {"amenity": "cafe", "name": "Caf\u00e9 El Amel"}}, {"type": "node", "id": 8341779268, "lat": 35.4705707, "lon": 10.667877, "tags": {"addr:city": "kerker", "addr:postcode": "5112", "addr:street": "kerker mahata", "amenity": "cafe", "cuisine": "thai;italian;coffee_shop", "internet_access": "yes", "internet_access:fee": "no", "name": "Caf\u00e9 La Reine", "opening_hours": "24/7", "outdoor_seating": "yes", "phone": "+216 28 156 704", "website": "https://www.facebook.com/reinekerker"}}, {"type": "node", "id": 8708837129, "lat": 35.3046041, "lon": 10.4586276, "tags": {"amenity": "cafe", "name": "Caf\u00e9 20 Mars"}}, {"type": "node", "id": 8708933578, "lat": 35.3693654, "lon": 10.5012563, "tags": {"amenity": "cafe", "name": "Caf\u00e9 Mohamed Ben Younes"}}, {"type": "node", "id": 10021286057, "lat": 35.2997131, "lon": 10.7664701, "tags": {"amenity": "cafe", "name": "Caf\u00e9 Messadia", "name:fr": "Caf\u00e9 Messadia"}}, {"type": "node", "id": 10021286058, "lat": 35.2997506, "lon": 10.7661955, "tags": {"name": "Sup\u00e9rette Messadia", "name:fr": "Sup\u00e9rette Messadia", "shop": "convenience"}}, {"type": "node", "id": 10725158104, "lat": 35.2227744, "lon": 10.7536606, "tags": {"name": "Epicerie Hached", "opening_hours": "Mo-Sa 08:00-18:00", "operator": "Hached", "shop": "supermarket"}}, {"type": "node", "id": 10725184505, "lat": 35.2204093, "lon": 10.7524478, "tags": {"name": "Epicerie Najib", "operator": "Najib", "shop": "supermarket"}}, {"type": "node", "id": 11125068405, "lat": 35.294384, "lon": 10.7067045, "tags": {"name:en": "Yasmine mode", "phone": "+216 24 257 564", "shop": "clothes"}}, {"type": "node", "id": 11761017154, "lat": 35.2953049, "lon": 10.7076686, "tags": {"addr:street": "\u0634\u0627\u0631\u0639 \u0627\u0644\u062d\u0628\u064a\u0628 \u0628\u0648\u0631\u0642\u064a\u0628\u0629", "amenity": "cafe", "name": "Caf\u00e9 Bacchus"}}, {"type": "node", "id": 11761038223, "lat": 35.2935906, "lon": 10.7090264, "tags": {"amenity": "cafe", "name": "Caf\u00e9 Youssef"}}, {"type": "node", "id": 11761116326, "lat": 35.2976772, "lon": 10.7058681, "tags": {"amenity": "cafe", "name": "Venus"}}, {"type": "node", "id": 11761128951, "lat": 35.2975988, "lon": 10.7059198, "tags": {"amenity": "cafe", "name": "Central"}}, {"type": "node", "id": 11761261099, "lat": 35.295587, "lon": 10.7068132, "tags": {"amenity": "cafe", "name": "Kacem"}}, {"type": "node", "id": 11761362133, "lat": 35.2978291, "lon": 10.7078814, "tags": {"amenity": "cafe", "name": "Debbebi"}}, {"type": "node", "id": 11761373232, "lat": 35.2982322, "lon": 10.7062527, "tags": {"amenity": "cafe", "name": "La Symphonie"}}, {"type": "node", "id": 11761381707, "lat": 35.2964062, "lon": 10.7058595, "tags": {"amenity": "cafe", "name": "Jledou"}}, {"type": "node", "id": 12382772258, "lat": 35.3523618, "lon": 10.7897373, "tags": {"amenity": "cafe", "name:fr": "Caf\u00e9 Station"}}, {"type": "node", "id": 12382806296, "lat": 35.2927408, "lon": 10.7077234, "tags": {"name:fr": "Aziza", "shop": "supermarket"}}, {"type": "way", "id": 255326781, "nodes": [2610191009, 2610191010, 2610191014, 2610191013, 2610191012, 2610191011, 2610191009], "tags": {"building": "yes", "name": "Mini Prix", "shop": "supermarket"}}]}